frame,hand,ts_sec,macro_task,micro_step,step_idx,op_height_cm,robot_height_cm,environment,scene,x0,x1,x2,x3,x4,x5,x6,x7,x8,x9,x10,x11,x12,x13,x14,x15,x16,x17,x18,x19,x20,y0,y1,y2,y3,y4,y5,y6,y7,y8,y9,y10,y11,y12,y13,y14,y15,y16,y17,y18,y19,y20,z0,z1,z2,z3,z4,z5,z6,z7,z8,z9,z10,z11,z12,z13,z14,z15,z16,z17,z18,z19,z20,roll_deg,pitch_deg,yaw_deg,nx0,nx1,nx2,nx3,nx4,nx5,nx6,nx7,nx8,nx9,nx10,nx11,nx12,nx13,nx14,nx15,nx16,nx17,nx18,nx19,nx20,ny0,ny1,ny2,ny3,ny4,ny5,ny6,ny7,ny8,ny9,ny10,ny11,ny12,ny13,ny14,ny15,ny16,ny17,ny18,ny19,ny20,nz0,nz1,nz2,nz3,nz4,nz5,nz6,nz7,nz8,nz9,nz10,nz11,nz12,nz13,nz14,nz15,nz16,nz17,nz18,nz19,nz20,ee_x,ee_y,ee_z,thumb_mcp,thumb_ip,idx_mcp,idx_pip,idx_dip,mid_mcp,mid_pip,mid_dip,ring_mcp,ring_pip,ring_dip,pinky_mcp,pinky_pip,pinky_dip,grasp_type,finger_aperture_m,contact_state,ee_vx,ee_vy,ee_vz,ee_speed,ee_ax,ee_ay,ee_az,ee_accel
10,Left,0.333,Load metal blank into press die — Operator loads metal blank into hydraulic punch press die cavity.,,1,162.0,0.0,Metal Stamping Factory,Hydraulic Press Station,-0.024684876203536987,0.00603020004928112,0.025419410318136215,0.035028126090765,0.03711377829313278,0.011639698408544064,0.025931570678949356,0.03541787713766098,0.031783830374479294,-0.0010137236677110195,0.01445681881159544,0.022528400644659996,0.02476128190755844,-0.007756083272397518,0.003445007372647524,0.010323180817067623,0.012835152447223663,-0.02109222486615181,-0.01311443280428648,-0.007372232619673014,-0.00509994151070714,-0.06592486798763275,-0.05834921821951866,-0.038359880447387695,-0.014300189912319183,-0.0025347918272018433,-0.002000597305595875,0.003405790776014328,-0.001094834879040718,-0.009429949335753918,0.002507793717086315,0.013617991469800472,0.009064380079507828,0.004817468114197254,0.0025405865162611008,0.015625637024641037,0.011442514136433601,0.0035524736158549786,-0.0008657248690724373,0.010160395875573158,0.010236790403723717,0.006604469381272793,0.023564612492918968,0.015324831940233707,0.011326542124152184,0.009400811046361923,-0.0017654621042311192,-0.008525018580257893,-0.0039289891719818115,0.012712179683148861,0.03291526064276695,-0.0014266602229326963,0.006015982013195753,0.02172764576971531,0.03801834583282471,0.004639442544430494,0.016702143475413322,0.03056253306567669,0.041825827211141586,0.018121007829904556,0.026568923145532608,0.034207601100206375,0.0357527993619442,-157.114,-32.977,147.979,-0.024684876203536987,0.00603020004928112,0.025419410318136215,0.035028126090765,0.03711377829313278,0.011639698408544064,0.025931570678949356,0.03541787713766098,0.031783830374479294,-0.0010137236677110195,0.01445681881159544,0.022528400644659996,0.02476128190755844,-0.007756083272397518,0.003445007372647524,0.010323180817067623,0.012835152447223663,-0.02109222486615181,-0.01311443280428648,-0.007372232619673014,-0.00509994151070714,-0.06592486798763275,-0.05834921821951866,-0.038359880447387695,-0.014300189912319183,-0.0025347918272018433,-0.002000597305595875,0.003405790776014328,-0.001094834879040718,-0.009429949335753918,0.002507793717086315,0.013617991469800472,0.009064380079507828,0.004817468114197254,0.0025405865162611008,0.015625637024641037,0.011442514136433601,0.0035524736158549786,-0.0008657248690724373,0.010160395875573158,0.010236790403723717,0.006604469381272793,0.023564612492918968,0.015324831940233707,0.011326542124152184,0.009400811046361923,-0.0017654621042311192,-0.008525018580257893,-0.0039289891719818115,0.012712179683148861,0.03291526064276695,-0.0014266602229326963,0.006015982013195753,0.02172764576971531,0.03801834583282471,0.004639442544430494,0.016702143475413322,0.03056253306567669,0.041825827211141586,0.018121007829904556,0.026568923145532608,0.034207601100206375,0.0357527993619442,-0.024685,-0.065925,0.023565,147.995,157.438,124.079,126.721,141.095,126.899,120.839,161.234,123.934,124.21,157.09,131.941,136.578,124.372,open,0.035759,partial,0.0,0.0,0.0,0.0,0.0,0.0,0.0,0.0
20,Right,0.667,Load metal blank into press die — Operator loads metal blank into hydraulic punch press die cavity.,,1,162.0,0.0,Metal Stamping Factory,Hydraulic Press Station,-0.021262846887111664,-0.03195019066333771,-0.02970999851822853,-0.032967403531074524,-0.01962006837129593,-0.011406812816858292,-0.005509024485945702,-0.007327352650463581,-0.01611514762043953,-0.0027431489434093237,0.011900646612048149,0.0033191032707691193,-0.0005555497482419014,0.0062426114454865456,0.01670689694583416,0.013489695265889168,0.005824549589306116,0.009472440928220749,0.02037317305803299,0.020768210291862488,0.01499093882739544,-0.05004486069083214,-0.02786683663725853,-0.0073121897876262665,0.00730680488049984,0.019551705569028854,0.0038075498305261135,0.015856942161917686,0.02211723104119301,0.012416827492415905,0.0008265444193966687,0.016214855015277863,0.02444860152900219,0.02145516499876976,-0.00020562182180583477,0.010511438362300396,0.017217794433236122,0.014284854754805565,-0.005716724321246147,0.001066344790160656,0.011317484080791473,0.012453161180019379,0.03235749900341034,0.02380540780723095,0.02739177830517292,0.02788199484348297,0.026540370658040047,-0.002303405897691846,0.0016009537503123283,0.01548105850815773,0.02707410231232643,-0.0003571068518795073,0.001340987510047853,0.013065376318991184,0.028781095519661903,0.0009971100371330976,0.00530942901968956,0.01769396662712097,0.032319553196430206,0.011152703315019608,0.013203336857259274,0.02406940795481205,0.029002618044614792,-33.656,-21.058,-6.55,-0.021262846887111664,-0.03195019066333771,-0.02970999851822853,-0.032967403531074524,-0.01962006837129593,-0.011406812816858292,-0.005509024485945702,-0.007327352650463581,-0.01611514762043953,-0.0027431489434093237,0.011900646612048149,0.0033191032707691193,-0.0005555497482419014,0.0062426114454865456,0.01670689694583416,0.013489695265889168,0.005824549589306116,0.009472440928220749,0.02037317305803299,0.020768210291862488,0.01499093882739544,-0.05004486069083214,-0.02786683663725853,-0.0073121897876262665,0.00730680488049984,0.019551705569028854,0.0038075498305261135,0.015856942161917686,0.02211723104119301,0.012416827492415905,0.0008265444193966687,0.016214855015277863,0.02444860152900219,0.02145516499876976,-0.00020562182180583477,0.010511438362300396,0.017217794433236122,0.014284854754805565,-0.005716724321246147,0.001066344790160656,0.011317484080791473,0.012453161180019379,0.03235749900341034,0.02380540780723095,0.02739177830517292,0.02788199484348297,0.026540370658040047,-0.002303405897691846,0.0016009537503123283,0.01548105850815773,0.02707410231232643,-0.0003571068518795073,0.001340987510047853,0.013065376318991184,0.028781095519661903,0.0009971100371330976,0.00530942901968956,0.01769396662712097,0.032319553196430206,0.011152703315019608,0.013203336857259274,0.02406940795481205,0.029002618044614792,-0.021263,-0.050045,0.032357,137.194,159.705,129.158,123.707,115.674,137.793,93.374,134.553,132.679,114.007,140.193,141.805,119.652,123.266,open,0.007967,closed,0.0,0.0,0.0,0.0,0.0,0.0,0.0,0.0
30,Right,1.000,Load metal blank into press die — Operator loads metal blank into hydraulic punch press die cavity.,,1,162.0,0.0,Metal Stamping Factory,Hydraulic Press Station,0.04789526015520096,0.04812511429190636,0.05095438286662102,0.04725029692053795,0.048297278583049774,-0.0013918026816099882,0.003583161626011133,0.020880544558167458,0.036390550434589386,-0.00715862400829792,-0.004600055515766144,0.008995421230793,0.02446739375591278,0.000408496824093163,0.0020802232902497053,0.017837177962064743,0.033230334520339966,0.009007099084556103,0.0177508145570755,0.030878450721502304,0.04109111800789833,-0.06657203286886215,-0.04746539890766144,-0.01984894461929798,0.006139364559203386,0.02335554175078869,-0.0038175235968083143,0.01923898234963417,0.03153875470161438,0.0268187765032053,0.00012030411744490266,0.03376564010977745,0.045413341373205185,0.04428098723292351,0.004679701756685972,0.03228296712040901,0.043668296188116074,0.04022898152470589,-0.0011093945940956473,0.02282561920583248,0.035617895424366,0.03935208544135094,-0.0005162832676433027,0.02145416848361492,0.03513107821345329,0.04685301333665848,0.047957178205251694,0.024128010496497154,0.031324632465839386,0.03762546554207802,0.03885086998343468,0.0059814839623868465,0.010082552209496498,0.017248613759875298,0.02725176140666008,-0.01682545430958271,-0.01710948906838894,-0.005886476021260023,0.006087115965783596,-0.03320905193686485,-0.030842769891023636,-0.02214754931628704,-0.01183686126023531,23.974,79.374,63.147,0.04789526015520096,0.04812511429190636,0.05095438286662102,0.04725029692053795,0.048297278583049774,-0.0013918026816099882,0.003583161626011133,0.020880544558167458,0.036390550434589386,-0.00715862400829792,-0.004600055515766144,0.008995421230793,0.02446739375591278,0.000408496824093163,0.0020802232902497053,0.017837177962064743,0.033230334520339966,0.009007099084556103,0.0177508145570755,0.030878450721502304,0.04109111800789833,-0.06657203286886215,-0.04746539890766144,-0.01984894461929798,0.006139364559203386,0.02335554175078869,-0.0038175235968083143,0.01923898234963417,0.03153875470161438,0.0268187765032053,0.00012030411744490266,0.03376564010977745,0.045413341373205185,0.04428098723292351,0.004679701756685972,0.03228296712040901,0.043668296188116074,0.04022898152470589,-0.0011093945940956473,0.02282561920583248,0.035617895424366,0.03935208544135094,-0.0005162832676433027,0.02145416848361492,0.03513107821345329,0.04685301333665848,0.047957178205251694,0.024128010496497154,0.031324632465839386,0.03762546554207802,0.03885086998343468,0.0059814839623868465,0.010082552209496498,0.017248613759875298,0.02725176140666008,-0.01682545430958271,-0.01710948906838894,-0.005886476021260023,0.006087115965783596,-0.03320905193686485,-0.030842769891023636,-0.02214754931628704,-0.01183686126023531,0.047895,-0.066572,-0.000516,156.891,167.185,132.036,139.47,127.263,136.258,134.09,139.05,141.71,122.926,139.453,122.822,148.26,153.257,open,0.015385,closed,0.207474,-0.049582,-0.098621,0.235011,0.622423,-0.148745,-0.295864,0.705032
32,Left,1.067,Load metal blank into press die — Operator loads metal blank into hydraulic punch press die cavity.,,1,162.0,0.0,Metal Stamping Factory,Hydraulic Press Station,0.029808994382619858,0.03640300780534744,0.03603648394346237,0.02886834368109703,0.02565343677997589,0.0016479231417179108,0.006898385006934404,0.014384821988642216,0.020014382898807526,-0.0019647954031825066,-0.007852666079998016,-0.0033177537843585014,-0.0021403683349490166,-0.002782819326967001,-0.009362073615193367,-0.007786008529365063,-0.0022761174477636814,-0.002458785427734256,-0.008489888161420822,-0.010179707780480385,-0.008075878955423832,-0.05275830626487732,-0.027462894096970558,-0.007862689904868603,0.0061802007257938385,0.016752855852246284,-0.0003031378146260977,0.015214381739497185,0.02702127769589424,0.0227944515645504,-0.000655967160128057,0.018033798784017563,0.025995727628469467,0.0280450452119112,7.492327131330967e-05,0.00714392215013504,0.014570527710020542,0.016587745398283005,-0.007606511935591698,-0.002026048256084323,0.004212374798953533,0.0032466715201735497,0.046265460550785065,0.02720658667385578,0.015455350279808044,-0.0009996743174269795,-0.019050372764468193,-0.010675020515918732,-0.011561012826859951,0.008734483271837234,0.03303999826312065,-0.0023939728271216154,0.0007919672061689198,0.01869761012494564,0.04410022869706154,0.006836572661995888,0.010916775092482567,0.029765227809548378,0.0496683232486248,0.02372191846370697,0.028038794174790382,0.0366491973400116,0.04642591252923012,-109.834,-48.491,147.094,0.029808994382619858,0.03640300780534744,0.03603648394346237,0.02886834368109703,0.02565343677997589,0.0016479231417179108,0.006898385006934404,0.014384821988642216,0.020014382898807526,-0.0019647954031825066,-0.007852666079998016,-0.0033177537843585014,-0.0021403683349490166,-0.002782819326967001,-0.009362073615193367,-0.007786008529365063,-0.0022761174477636814,-0.002458785427734256,-0.008489888161420822,-0.010179707780480385,-0.008075878955423832,-0.05275830626487732,-0.027462894096970558,-0.007862689904868603,0.0061802007257938385,0.016752855852246284,-0.0003031378146260977,0.015214381739497185,0.02702127769589424,0.0227944515645504,-0.000655967160128057,0.018033798784017563,0.025995727628469467,0.0280450452119112,7.492327131330967e-05,0.00714392215013504,0.014570527710020542,0.016587745398283005,-0.007606511935591698,-0.002026048256084323,0.004212374798953533,0.0032466715201735497,0.046265460550785065,0.02720658667385578,0.015455350279808044,-0.0009996743174269795,-0.019050372764468193,-0.010675020515918732,-0.011561012826859951,0.008734483271837234,0.03303999826312065,-0.0023939728271216154,0.0007919672061689198,0.01869761012494564,0.04410022869706154,0.006836572661995888,0.010916775092482567,0.029765227809548378,0.0496683232486248,0.02372191846370697,0.028038794174790382,0.0366491973400116,0.04642591252923012,0.029809,-0.052758,0.046265,165.967,154.784,122.018,120.391,141.13,130.476,116.657,158.215,123.634,123.971,161.058,128.916,145.318,133.605,open,0.052742,partial,0.07431,0.017954,0.030956,0.082478,0.101332,0.024483,0.042212,0.11247
32,Right,1.067,Load metal blank into press die — Operator loads metal blank into hydraulic punch press die cavity.,,1,162.0,0.0,Metal Stamping Factory,Hydraulic Press Station,-0.008133847266435623,-0.027847612276673317,-0.02784612961113453,-0.03254356235265732,-0.03648091480135918,-0.00852160807698965,-0.014294877648353577,-0.022289693355560303,-0.03288761526346207,-0.0006396883982233703,-0.006036720238626003,-0.014911183156073093,-0.025534141808748245,0.0027983111795037985,3.6213546991348267e-05,-0.008294353261590004,-0.01531792152673006,0.005130385048687458,0.003127692500129342,-0.0034583816304802895,-0.01207298506051302,-0.03495126962661743,-0.02661440707743168,-0.004569621756672859,0.01583324372768402,0.03410077840089798,-0.0020814817398786545,0.016529042273759842,0.03292091190814972,0.04556705057621002,-0.001797777833417058,0.025690065696835518,0.040646106004714966,0.05192217603325844,0.003720301203429699,0.015617595985531807,0.032858412712812424,0.04032557085156441,0.0013383531477302313,0.01092026848345995,0.02905881404876709,0.03560936078429222,0.08474939316511154,0.048254478722810745,0.029383884742856026,0.0014001840027049184,-0.02010418474674225,-0.015183208510279655,-0.019580747932195663,-0.0015510623343288898,0.019191302359104156,-0.0050173914059996605,-0.008098808117210865,0.009193487465381622,0.033983856439590454,0.009169498458504677,0.007759183179587126,0.02419542334973812,0.04841411113739014,0.031629785895347595,0.030748073011636734,0.04138687625527382,0.0542670413851738,-79.546,-18.013,46.439,-0.008133847266435623,-0.027847612276673317,-0.02784612961113453,-0.03254356235265732,-0.03648091480135918,-0.00852160807698965,-0.014294877648353577,-0.022289693355560303,-0.03288761526346207,-0.0006396883982233703,-0.006036720238626003,-0.014911183156073093,-0.025534141808748245,0.0027983111795037985,3.6213546991348267e-05,-0.008294353261590004,-0.01531792152673006,0.005130385048687458,0.003127692500129342,-0.0034583816304802895,-0.01207298506051302,-0.03495126962661743,-0.02661440707743168,-0.004569621756672859,0.01583324372768402,0.03410077840089798,-0.0020814817398786545,0.016529042273759842,0.03292091190814972,0.04556705057621002,-0.001797777833417058,0.025690065696835518,0.040646106004714966,0.05192217603325844,0.003720301203429699,0.015617595985531807,0.032858412712812424,0.04032557085156441,0.0013383531477302313,0.01092026848345995,0.02905881404876709,0.03560936078429222,0.08474939316511154,0.048254478722810745,0.029383884742856026,0.0014001840027049184,-0.02010418474674225,-0.015183208510279655,-0.019580747932195663,-0.0015510623343288898,0.019191302359104156,-0.0050173914059996605,-0.008098808117210865,0.009193487465381622,0.033983856439590454,0.009169498458504677,0.007759183179587126,0.02419542334973812,0.04841411113739014,0.031629785895347595,0.030748073011636734,0.04138687625527382,0.0542670413851738,-0.008134,-0.034951,0.084749,135.284,164.618,120.085,122.061,168.471,115.1,125.946,164.725,120.647,131.344,151.88,124.751,145.093,147.48,open,0.041092,partial,-0.840437,0.474311,1.278985,1.60222,-15.718664,7.858394,20.664097,27.126291
34,Left,1.133,Load metal blank into press die — Operator loads metal blank into hydraulic punch press die cavity.,,1,162.0,0.0,Metal Stamping Factory,Hydraulic Press Station,0.04478231817483902,0.052048683166503906,0.05101056396961212,0.04283137619495392,0.028029214590787888,0.010628421790897846,0.010754581540822983,0.016146931797266006,0.027886483818292618,-0.0030674634035676718,-0.008584761992096901,0.0014338241890072823,0.008434506133198738,-0.006821202579885721,-0.008496502414345741,-0.000269891694188118,0.006698296871036291,-0.005987543147057295,-0.007668342906981707,-0.0032491048332303762,0.004517291206866503,-0.05506295710802078,-0.02996279112994671,-0.005087835714221001,0.008059334941208363,0.014746509492397308,0.004148087929934263,0.023944538086652756,0.03135278448462486,0.02445051074028015,-4.576414357870817e-05,0.02435128018260002,0.02531460113823414,0.022744767367839813,-0.0014375225873664021,0.015708263963460922,0.020630165934562683,0.01568414643406868,-0.012086653150618076,0.0038529185112565756,0.01229415088891983,0.00928107462823391,0.026054445654153824,0.026792103424668312,0.030238362029194832,0.02401527762413025,0.018485408276319504,0.009760623797774315,0.012343544512987137,0.02542410045862198,0.03154657036066055,0.0029980323743075132,0.0034738630056381226,0.018951956182718277,0.03300180658698082,-0.0061571793630719185,-0.004970928188413382,0.00995918083935976,0.025212900713086128,-0.0072547197341918945,-0.0034968601539731026,0.006239509209990501,0.014990879222750664,-158.739,33.752,-126.787,0.04478231817483902,0.052048683166503906,0.05101056396961212,0.04283137619495392,0.028029214590787888,0.010628421790897846,0.010754581540822983,0.016146931797266006,0.027886483818292618,-0.0030674634035676718,-0.008584761992096901,0.0014338241890072823,0.008434506133198738,-0.006821202579885721,-0.008496502414345741,-0.000269891694188118,0.006698296871036291,-0.005987543147057295,-0.007668342906981707,-0.0032491048332303762,0.004517291206866503,-0.05506295710802078,-0.02996279112994671,-0.005087835714221001,0.008059334941208363,0.014746509492397308,0.004148087929934263,0.023944538086652756,0.03135278448462486,0.02445051074028015,-4.576414357870817e-05,0.02435128018260002,0.02531460113823414,0.022744767367839813,-0.0014375225873664021,0.015708263963460922,0.020630165934562683,0.01568414643406868,-0.012086653150618076,0.0038529185112565756,0.01229415088891983,0.00928107462823391,0.026054445654153824,0.026792103424668312,0.030238362029194832,0.02401527762413025,0.018485408276319504,0.009760623797774315,0.012343544512987137,0.02542410045862198,0.03154657036066055,0.0029980323743075132,0.0034738630056381226,0.018951956182718277,0.03300180658698082,-0.0061571793630719185,-0.004970928188413382,0.00995918083935976,0.025212900713086128,-0.0072547197341918945,-0.0034968601539731026,0.006239509209990501,0.014990879222750664,0.044782,-0.055063,0.026054,160.505,138.49,143.365,124.615,112.76,146.496,86.971,166.142,133.712,106.754,147.187,121.791,136.885,124.867,open,0.016272,closed,0.2246,-0.03457,-0.303165,0.378879,2.254351,-0.787862,-5.011814,5.551676
34,Right,1.133,Load metal blank into press die — Operator loads metal blank into hydraulic punch press die cavity.,,1,162.0,0.0,Metal Stamping Factory,Hydraulic Press Station,-0.0020362818613648415,-0.021705131977796555,-0.026758534833788872,-0.03362448140978813,-0.035359520465135574,-0.011181626468896866,-0.016929473727941513,-0.02488810010254383,-0.03560972958803177,-0.0020471224561333656,-0.0087907575070858,-0.023843131959438324,-0.03427363932132721,0.006194752175360918,-0.00430040480569005,-0.013148686848580837,-0.020064935088157654,0.0092792809009552,0.0013831589603796601,-0.007749692536890507,-0.010262487456202507,-0.04662610590457916,-0.03365481272339821,-0.012135133147239685,0.01303647831082344,0.034389156848192215,-0.002334742806851864,0.0161884818226099,0.0360523983836174,0.0467163622379303,-0.0006754091591574252,0.022141199558973312,0.03642742335796356,0.050058215856552124,0.0027812677435576916,0.012374541722238064,0.029322326183319092,0.03667457774281502,0.0019648722372949123,0.009119088761508465,0.021044224500656128,0.02529950439929962,0.07342922687530518,0.033104073256254196,0.020502211526036263,-0.0023243543691933155,-0.014626548625528812,-0.022104935720562935,-0.02388972043991089,-0.004849225748330355,0.02046031691133976,-0.005825198255479336,-0.003976929001510143,0.013440807349979877,0.03926122188568115,0.014068393036723137,0.016175711527466774,0.03172870725393295,0.05284148454666138,0.040942542254924774,0.043096333742141724,0.05341985076665878,0.057583488523960114,-73.8,-25.726,56.219,-0.0020362818613648415,-0.021705131977796555,-0.026758534833788872,-0.03362448140978813,-0.035359520465135574,-0.011181626468896866,-0.016929473727941513,-0.02488810010254383,-0.03560972958803177,-0.0020471224561333656,-0.0087907575070858,-0.023843131959438324,-0.03427363932132721,0.006194752175360918,-0.00430040480569005,-0.013148686848580837,-0.020064935088157654,0.0092792809009552,0.0013831589603796601,-0.007749692536890507,-0.010262487456202507,-0.04662610590457916,-0.03365481272339821,-0.012135133147239685,0.01303647831082344,0.034389156848192215,-0.002334742806851864,0.0161884818226099,0.0360523983836174,0.0467163622379303,-0.0006754091591574252,0.022141199558973312,0.03642742335796356,0.050058215856552124,0.0027812677435576916,0.012374541722238064,0.029322326183319092,0.03667457774281502,0.0019648722372949123,0.009119088761508465,0.021044224500656128,0.02529950439929962,0.07342922687530518,0.033104073256254196,0.020502211526036263,-0.0023243543691933155,-0.014626548625528812,-0.022104935720562935,-0.02388972043991089,-0.004849225748330355,0.02046031691133976,-0.005825198255479336,-0.003976929001510143,0.013440807349979877,0.03926122188568115,0.014068393036723137,0.016175711527466774,0.03172870725393295,0.05284148454666138,0.040942542254924774,0.043096333742141724,0.05341985076665878,0.057583488523960114,-0.002036,-0.046626,0.073429,138.258,168.386,120.457,132.893,157.297,114.368,135.312,162.575,103.599,144.447,153.061,106.916,155.067,172.162,open,0.03719,partial,0.091463,-0.175123,-0.169802,0.260512,13.978501,-9.74151,-21.731815,27.614621
36,Left,1.200,Load metal blank into press die — Operator loads metal blank into hydraulic punch press die cavity.,,1,162.0,0.0,Metal Stamping Factory,Hydraulic Press Station,0.0009550768882036209,0.018572011962532997,0.022158194333314896,0.011617916636168957,-0.0022897799499332905,0.014971775002777576,0.007551222108304501,-0.0010854064021259546,-0.012035062536597252,0.0005684733623638749,-0.006809961050748825,-0.017149921506643295,-0.02205299586057663,-0.011465705931186676,-0.019726313650608063,-0.02268005907535553,-0.023661985993385315,-0.02458588406443596,-0.02306511625647545,-0.02609899267554283,-0.021462377160787582,-0.06262371689081192,-0.03651570901274681,-0.008678419515490532,0.012697391211986542,0.028972378000617027,0.0034126355312764645,0.02912253513932228,0.04999084398150444,0.05726246535778046,0.00013065767416264862,0.03384175896644592,0.048677489161491394,0.06150132045149803,-0.0016132337041199207,0.02383163943886757,0.038165755569934845,0.04717827960848808,-0.0089279655367136,0.008305169641971588,0.02475070394575596,0.033060912042856216,0.07711505889892578,0.05278627201914787,0.040978942066431046,0.019650902599096298,-0.001200369093567133,-0.009601124562323093,-0.010036271065473557,0.006652212701737881,0.03289099782705307,-0.00462336465716362,-0.002965594409033656,0.01452895812690258,0.0410599447786808,0.004849900491535664,0.009466816671192646,0.028843147680163383,0.05352264270186424,0.024578126147389412,0.02639206498861313,0.036293547600507736,0.04618430137634277,-126.454,-9.548,167.698,0.0009550768882036209,0.018572011962532997,0.022158194333314896,0.011617916636168957,-0.0022897799499332905,0.014971775002777576,0.007551222108304501,-0.0010854064021259546,-0.012035062536597252,0.0005684733623638749,-0.006809961050748825,-0.017149921506643295,-0.02205299586057663,-0.011465705931186676,-0.019726313650608063,-0.02268005907535553,-0.023661985993385315,-0.02458588406443596,-0.02306511625647545,-0.02609899267554283,-0.021462377160787582,-0.06262371689081192,-0.03651570901274681,-0.008678419515490532,0.012697391211986542,0.028972378000617027,0.0034126355312764645,0.02912253513932228,0.04999084398150444,0.05726246535778046,0.00013065767416264862,0.03384175896644592,0.048677489161491394,0.06150132045149803,-0.0016132337041199207,0.02383163943886757,0.038165755569934845,0.04717827960848808,-0.0089279655367136,0.008305169641971588,0.02475070394575596,0.033060912042856216,0.07711505889892578,0.05278627201914787,0.040978942066431046,0.019650902599096298,-0.001200369093567133,-0.009601124562323093,-0.010036271065473557,0.006652212701737881,0.03289099782705307,-0.00462336465716362,-0.002965594409033656,0.01452895812690258,0.0410599447786808,0.004849900491535664,0.009466816671192646,0.028843147680163383,0.05352264270186424,0.024578126147389412,0.02639206498861313,0.036293547600507736,0.04618430137634277,0.000955,-0.062624,0.077115,152.736,146.179,123.692,142.139,146.122,123.844,134.144,159.734,120.682,136.552,162.923,124.977,151.38,145.767,open,0.04536,partial,-0.657409,-0.113411,0.765909,1.015709,-13.230127,-1.182625,16.036116,20.822869
38,Left,1.267,Load metal blank into press die — Operator loads metal blank into hydraulic punch press die cavity.,,1,162.0,0.0,Metal Stamping Factory,Hydraulic Press Station,0.007968660444021225,0.026036998257040977,0.03013012558221817,0.021809769794344902,0.010479435324668884,0.01685236394405365,0.008530172519385815,0.00017374521121382713,-0.009160768240690231,0.0005469495663419366,-0.011011290363967419,-0.017995284870266914,-0.021395094692707062,-0.0118634644895792,-0.01989908143877983,-0.019804392009973526,-0.01753206178545952,-0.024836469441652298,-0.022930961102247238,-0.020020563155412674,-0.015370719134807587,-0.06177623197436333,-0.03250187635421753,-0.0027746623381972313,0.01685609668493271,0.03270205110311508,0.004796280525624752,0.030931327491998672,0.049296241253614426,0.056829679757356644,-0.0004271813086234033,0.03406820446252823,0.046770527958869934,0.05902029573917389,-0.0024528116919100285,0.024969231337308884,0.0377340205013752,0.045210838317871094,-0.009518318809568882,0.00866268016397953,0.02372743934392929,0.030018504709005356,0.07488975673913956,0.051669780164957047,0.03886761888861656,0.015724485740065575,-0.005292873363941908,-0.006736393086612225,-0.008619572035968304,0.01279114093631506,0.04515418782830238,-0.00402071001008153,-0.002838239772245288,0.018247298896312714,0.04851814731955528,0.00381161249242723,0.008851774036884308,0.03075709380209446,0.05787118896842003,0.020755300298333168,0.025505751371383667,0.04164498299360275,0.0560929961502552,-127.38,-7.782,176.848,0.007968660444021225,0.026036998257040977,0.03013012558221817,0.021809769794344902,0.010479435324668884,0.01685236394405365,0.008530172519385815,0.00017374521121382713,-0.009160768240690231,0.0005469495663419366,-0.011011290363967419,-0.017995284870266914,-0.021395094692707062,-0.0118634644895792,-0.01989908143877983,-0.019804392009973526,-0.01753206178545952,-0.024836469441652298,-0.022930961102247238,-0.020020563155412674,-0.015370719134807587,-0.06177623197436333,-0.03250187635421753,-0.0027746623381972313,0.01685609668493271,0.03270205110311508,0.004796280525624752,0.030931327491998672,0.049296241253614426,0.056829679757356644,-0.0004271813086234033,0.03406820446252823,0.046770527958869934,0.05902029573917389,-0.0024528116919100285,0.024969231337308884,0.0377340205013752,0.045210838317871094,-0.009518318809568882,0.00866268016397953,0.02372743934392929,0.030018504709005356,0.07488975673913956,0.051669780164957047,0.03886761888861656,0.015724485740065575,-0.005292873363941908,-0.006736393086612225,-0.008619572035968304,0.01279114093631506,0.04515418782830238,-0.00402071001008153,-0.002838239772245288,0.018247298896312714,0.04851814731955528,0.00381161249242723,0.008851774036884308,0.03075709380209446,0.05787118896842003,0.020755300298333168,0.025505751371383667,0.04164498299360275,0.0560929961502552,0.007969,-0.061776,0.07489,156.469,145.474,128.766,129.017,153.569,125.311,125.725,166.718,121.315,128.672,164.561,113.993,147.85,158.963,open,0.059269,partial,0.105204,0.012712,-0.03338,0.111102,11.439186,1.891855,-11.989331,16.678673
38,Left,1.267,Load metal blank into press die — Operator loads metal blank into hydraulic punch press die cavity.,,1,162.0,0.0,Metal Stamping Factory,Hydraulic Press Station,0.0045568328350782394,0.024028463289141655,0.0353701114654541,0.032795391976833344,0.025727413594722748,0.005826584994792938,0.006954626180231571,0.011104421690106392,0.014451297000050545,-0.0028008995577692986,-0.002511251252144575,0.0011419961228966713,0.0035013994202017784,-0.004763517528772354,-0.008689124137163162,-0.00808173418045044,-0.006198437884449959,-0.008779185824096203,-0.014970763586461544,-0.017142996191978455,-0.019767649471759796,-0.05779336765408516,-0.03601529449224472,-0.014265733771026134,0.005240855738520622,0.014393053948879242,0.005519496276974678,0.01617414690554142,0.031162522733211517,0.030791204422712326,0.0011368977138772607,0.01913086324930191,0.030514804646372795,0.031501274555921555,-0.0009086225181818008,0.014545665122568607,0.023863675072789192,0.025361651554703712,-0.009691081941127777,0.0030156555585563183,0.013128574006259441,0.01820860058069229,0.045306168496608734,0.03248116001486778,0.018723992630839348,0.0009348514722660184,-0.015372663736343384,-0.006190259475260973,-0.005315248854458332,0.009694702923297882,0.02701622247695923,-0.0016897909808903933,0.001524942577816546,0.021388784050941467,0.03453278914093971,0.0030437950044870377,0.009493132121860981,0.026916678994894028,0.03825119137763977,0.01680464670062065,0.018343763425946236,0.025909405201673508,0.031252119690179825,-137.327,-23.722,166.768,0.0045568328350782394,0.024028463289141655,0.0353701114654541,0.032795391976833344,0.025727413594722748,0.005826584994792938,0.006954626180231571,0.011104421690106392,0.014451297000050545,-0.0028008995577692986,-0.002511251252144575,0.0011419961228966713,0.0035013994202017784,-0.004763517528772354,-0.008689124137163162,-0.00808173418045044,-0.006198437884449959,-0.008779185824096203,-0.014970763586461544,-0.017142996191978455,-0.019767649471759796,-0.05779336765408516,-0.03601529449224472,-0.014265733771026134,0.005240855738520622,0.014393053948879242,0.005519496276974678,0.01617414690554142,0.031162522733211517,0.030791204422712326,0.0011368977138772607,0.01913086324930191,0.030514804646372795,0.031501274555921555,-0.0009086225181818008,0.014545665122568607,0.023863675072789192,0.025361651554703712,-0.009691081941127777,0.0030156555585563183,0.013128574006259441,0.01820860058069229,0.045306168496608734,0.03248116001486778,0.018723992630839348,0.0009348514722660184,-0.015372663736343384,-0.006190259475260973,-0.005315248854458332,0.009694702923297882,0.02701622247695923,-0.0016897909808903933,0.001524942577816546,0.021388784050941467,0.03453278914093971,0.0030437950044870377,0.009493132121860981,0.026916678994894028,0.03825119137763977,0.01680464670062065,0.018343763425946236,0.025909405201673508,0.031252119690179825,0.004557,-0.057793,0.045306,166.084,149.053,135.98,139.817,134.709,130.938,129.529,154.816,121.543,138.332,158.143,142.676,147.453,166.453,open,0.046828,partial,-0.051177,0.059743,-0.443754,0.450673,-2.345718,0.70546,-6.155614,6.625078
40,Right,1.333,Load metal blank into press die — Operator loads metal blank into hydraulic punch press die cavity.,,1,162.0,0.0,Metal Stamping Factory,Hydraulic Press Station,-0.003865618258714676,-0.021931050345301628,-0.026059865951538086,-0.026172352954745293,-0.0280433539301157,-0.007408853620290756,-0.013357792049646378,-0.02142162062227726,-0.026848215609788895,-0.00014053715858608484,-0.00619796896353364,-0.015701396390795708,-0.022910894826054573,0.004494537133723497,-0.00030412315391004086,-0.00365209742449224,-0.011483840644359589,0.00407392205670476,0.004636798053979874,0.0014725602231919765,-0.005208867136389017,-0.058358319103717804,-0.03619783744215965,-0.013971187174320221,0.0012557636946439743,0.016332531347870827,-0.0030623520724475384,0.01272009126842022,0.02872651070356369,0.038126859813928604,-0.0019471822306513786,0.01887861080467701,0.0342629998922348,0.04693782702088356,0.002912707393988967,0.016386600211262703,0.03321695700287819,0.042894989252090454,-4.6750938054174185e-05,0.010665268637239933,0.026262089610099792,0.03274983912706375,0.0522187240421772,0.028272124007344246,0.02110927179455757,0.008406381122767925,-0.0016882152995094657,-0.013573943637311459,-0.012263105250895023,0.008601914159953594,0.03246534615755081,-0.003833713475614786,-0.001784100430086255,0.021360594779253006,0.053902219980955124,0.00991984736174345,0.015396896749734879,0.036293935030698776,0.05903301760554314,0.02609277330338955,0.03147243708372116,0.04635452851653099,0.05502201244235039,-70.91,-41.837,58.799,-0.003865618258714676,-0.021931050345301628,-0.026059865951538086,-0.026172352954745293,-0.0280433539301157,-0.007408853620290756,-0.013357792049646378,-0.02142162062227726,-0.026848215609788895,-0.00014053715858608484,-0.00619796896353364,-0.015701396390795708,-0.022910894826054573,0.004494537133723497,-0.00030412315391004086,-0.00365209742449224,-0.011483840644359589,0.00407392205670476,0.004636798053979874,0.0014725602231919765,-0.005208867136389017,-0.058358319103717804,-0.03619783744215965,-0.013971187174320221,0.0012557636946439743,0.016332531347870827,-0.0030623520724475384,0.01272009126842022,0.02872651070356369,0.038126859813928604,-0.0019471822306513786,0.01887861080467701,0.0342629998922348,0.04693782702088356,0.002912707393988967,0.016386600211262703,0.03321695700287819,0.042894989252090454,-4.6750938054174185e-05,0.010665268637239933,0.026262089610099792,0.03274983912706375,0.0522187240421772,0.028272124007344246,0.02110927179455757,0.008406381122767925,-0.0016882152995094657,-0.013573943637311459,-0.012263105250895023,0.008601914159953594,0.03246534615755081,-0.003833713475614786,-0.001784100430086255,0.021360594779253006,0.053902219980955124,0.00991984736174345,0.015396896749734879,0.036293935030698776,0.05903301760554314,0.02609277330338955,0.03147243708372116,0.04635452851653099,0.05502201244235039,-0.003866,-0.058358,0.052219,146.636,156.087,123.707,134.81,163.707,126.735,131.668,166.097,118.855,149.625,161.377,129.219,159.778,155.043,open,0.040533,partial,-0.009147,-0.058661,-0.106053,0.12154,-0.503051,0.582307,0.31875,0.832913
40,Left,1.333,Load metal blank into press die — Operator loads metal blank into hydraulic punch press die cavity.,,1,162.0,0.0,Metal Stamping Factory,Hydraulic Press Station,0.012100249528884888,0.02964816987514496,0.036138009279966354,0.03538297489285469,0.0342889241874218,0.005278777331113815,0.009554984048008919,0.01836581714451313,0.025904815644025803,-0.0014959172112867236,-0.005294692702591419,-0.0017859451472759247,0.006765527650713921,-0.004309278447180986,-0.013153894804418087,-0.008222341537475586,0.0006349000614136457,-0.008281842805445194,-0.01573031023144722,-0.017553430050611496,-0.011545024812221527,-0.05997473746538162,-0.0395490899682045,-0.017890866845846176,-0.0008589786011725664,0.0117894746363163,0.0004738560237456113,0.015058571472764015,0.02846171334385872,0.03276339918375015,-0.00033073057420551777,0.021952776238322258,0.035375941544771194,0.04218236356973648,0.0013016678858548403,0.015209602192044258,0.026206066831946373,0.033014170825481415,-0.004980949684977531,0.004108865279704332,0.016283633187413216,0.021751761436462402,0.04144413024187088,0.022186966612935066,0.012960037216544151,0.0030799300875514746,-0.008153662085533142,-0.011774747632443905,-0.013944927603006363,0.0019709772896021605,0.018205629661679268,-0.002678484423086047,-0.0005496747326105833,0.013021452352404594,0.03249650076031685,0.0070710694417357445,0.010476825758814812,0.023243965581059456,0.040437355637550354,0.023683488368988037,0.026790950447320938,0.03270033746957779,0.03707045316696167,-122.862,-45.859,144.834,0.012100249528884888,0.02964816987514496,0.036138009279966354,0.03538297489285469,0.0342889241874218,0.005278777331113815,0.009554984048008919,0.01836581714451313,0.025904815644025803,-0.0014959172112867236,-0.005294692702591419,-0.0017859451472759247,0.006765527650713921,-0.004309278447180986,-0.013153894804418087,-0.008222341537475586,0.0006349000614136457,-0.008281842805445194,-0.01573031023144722,-0.017553430050611496,-0.011545024812221527,-0.05997473746538162,-0.0395490899682045,-0.017890866845846176,-0.0008589786011725664,0.0117894746363163,0.0004738560237456113,0.015058571472764015,0.02846171334385872,0.03276339918375015,-0.00033073057420551777,0.021952776238322258,0.035375941544771194,0.04218236356973648,0.0013016678858548403,0.015209602192044258,0.026206066831946373,0.033014170825481415,-0.004980949684977531,0.004108865279704332,0.016283633187413216,0.021751761436462402,0.04144413024187088,0.022186966612935066,0.012960037216544151,0.0030799300875514746,-0.008153662085533142,-0.011774747632443905,-0.013944927603006363,0.0019709772896021605,0.018205629661679268,-0.002678484423086047,-0.0005496747326105833,0.013021452352404594,0.03249650076031685,0.0070710694417357445,0.010476825758814812,0.023243965581059456,0.040437355637550354,0.023683488368988037,0.026790950447320938,0.03270033746957779,0.03707045316696167,0.0121,-0.059975,0.041444,155.212,161.064,141.264,124.926,156.844,138.711,135.57,152.85,136.464,121.139,159.898,143.206,149.22,130.281,open,0.034713,partial,0.113151,-0.032721,-0.057931,0.131262,2.46493,-1.386953,5.787349,6.4415
42,Right,1.400,Load metal blank into press die — Operator loads metal blank into hydraulic punch press die cavity.,,1,162.0,0.0,Metal Stamping Factory,Hydraulic Press Station,-0.0020902021788060665,-0.02376488782465458,-0.028032008558511734,-0.028168292716145515,-0.025537321344017982,-0.014130660332739353,-0.018536077812314034,-0.02547955885529518,-0.030666330829262733,-0.0011833083117380738,-0.006447671912610531,-0.015071256086230278,-0.021453920751810074,0.007855512201786041,0.0052766334265470505,0.0013524512760341167,-0.006598026491701603,0.013497200794517994,0.01296969223767519,0.010027630254626274,0.002554090227931738,-0.06363343447446823,-0.045447420328855515,-0.02155517414212227,0.00021106275380589068,0.017702801153063774,-0.0035246224142611027,0.016265394166111946,0.03227689489722252,0.04252113401889801,-0.0012351965997368097,0.024348529055714607,0.042165305465459824,0.055658210068941116,0.0038476320914924145,0.021509582176804543,0.03762025013566017,0.049980420619249344,0.0008033323101699352,0.014938651584088802,0.029817892238497734,0.038169074803590775,0.056334614753723145,0.03333038091659546,0.026488063856959343,0.013389780186116695,0.006263657007366419,-0.013455674983561039,-0.012492584064602852,0.009808452799916267,0.03470684960484505,-0.005544058978557587,-0.001771610346622765,0.02196532115340233,0.051126860082149506,0.008938951417803764,0.015565752051770687,0.03648722544312477,0.05905555188655853,0.028712641447782516,0.03428006172180176,0.048327162861824036,0.056308671832084656,-57.245,-33.151,39.532,-0.0020902021788060665,-0.02376488782465458,-0.028032008558511734,-0.028168292716145515,-0.025537321344017982,-0.014130660332739353,-0.018536077812314034,-0.02547955885529518,-0.030666330829262733,-0.0011833083117380738,-0.006447671912610531,-0.015071256086230278,-0.021453920751810074,0.007855512201786041,0.0052766334265470505,0.0013524512760341167,-0.006598026491701603,0.013497200794517994,0.01296969223767519,0.010027630254626274,0.002554090227931738,-0.06363343447446823,-0.045447420328855515,-0.02155517414212227,0.00021106275380589068,0.017702801153063774,-0.0035246224142611027,0.016265394166111946,0.03227689489722252,0.04252113401889801,-0.0012351965997368097,0.024348529055714607,0.042165305465459824,0.055658210068941116,0.0038476320914924145,0.021509582176804543,0.03762025013566017,0.049980420619249344,0.0008033323101699352,0.014938651584088802,0.029817892238497734,0.038169074803590775,0.056334614753723145,0.03333038091659546,0.026488063856959343,0.013389780186116695,0.006263657007366419,-0.013455674983561039,-0.012492584064602852,0.009808452799916267,0.03470684960484505,-0.005544058978557587,-0.001771610346622765,0.02196532115340233,0.051126860082149506,0.008938951417803764,0.015565752051770687,0.03648722544312477,0.05905555188655853,0.028712641447782516,0.03428006172180176,0.048327162861824036,0.056308671832084656,-0.00209,-0.063633,0.056335,138.099,162.295,128.565,129.931,166.599,125.845,136.409,167.278,122.604,148.485,167.714,133.306,157.379,155.279,open,0.038096,partial,0.026631,-0.079127,0.061738,0.103836,0.536669,-0.306985,2.516863,2.591689
42,Left,1.400,Load metal blank into press die — Operator loads metal blank into hydraulic punch press die cavity.,,1,162.0,0.0,Metal Stamping Factory,Hydraulic Press Station,0.014957296662032604,0.03218761831521988,0.03694521263241768,0.03365148976445198,0.032038550823926926,0.006036590784788132,0.010243117809295654,0.019564740359783173,0.026317045092582703,-0.0015606930246576667,-0.005269574001431465,-0.001210708636790514,0.00606083869934082,-0.004202576354146004,-0.012794113717973232,-0.007033516187220812,-0.0005882466211915016,-0.007700559217482805,-0.014681633561849594,-0.013806750997900963,-0.011145833879709244,-0.06112641841173172,-0.0395054966211319,-0.01647629216313362,-0.0005841189995408058,0.01044384017586708,-0.0011074012145400047,0.015172241255640984,0.029189079999923706,0.030474688857793808,-0.000529283017385751,0.022538328543305397,0.03468797355890274,0.04133988171815872,0.0013314527459442616,0.0151709308847785,0.025353725999593735,0.03182158246636391,-0.00521512608975172,0.004834414925426245,0.01390455849468708,0.01920381188392639,0.039627090096473694,0.023900572210550308,0.017644314095377922,0.007945142686367035,0.0003038526338059455,-0.009786051698029041,-0.009797357022762299,0.00685468502342701,0.02340814284980297,-0.002580103697255254,-0.0003264954430051148,0.015249975025653839,0.036070745438337326,0.006046304013580084,0.010131053626537323,0.02356167510151863,0.039601463824510574,0.020271405577659607,0.024876810610294342,0.03284047544002533,0.03858942911028862,-126.713,-45.911,151.323,0.014957296662032604,0.03218761831521988,0.03694521263241768,0.03365148976445198,0.032038550823926926,0.006036590784788132,0.010243117809295654,0.019564740359783173,0.026317045092582703,-0.0015606930246576667,-0.005269574001431465,-0.001210708636790514,0.00606083869934082,-0.004202576354146004,-0.012794113717973232,-0.007033516187220812,-0.0005882466211915016,-0.007700559217482805,-0.014681633561849594,-0.013806750997900963,-0.011145833879709244,-0.06112641841173172,-0.0395054966211319,-0.01647629216313362,-0.0005841189995408058,0.01044384017586708,-0.0011074012145400047,0.015172241255640984,0.029189079999923706,0.030474688857793808,-0.000529283017385751,0.022538328543305397,0.03468797355890274,0.04133988171815872,0.0013314527459442616,0.0151709308847785,0.025353725999593735,0.03182158246636391,-0.00521512608975172,0.004834414925426245,0.01390455849468708,0.01920381188392639,0.039627090096473694,0.023900572210550308,0.017644314095377922,0.007945142686367035,0.0003038526338059455,-0.009786051698029041,-0.009797357022762299,0.00685468502342701,0.02340814284980297,-0.002580103697255254,-0.0003264954430051148,0.015249975025653839,0.036070745438337326,0.006046304013580084,0.010131053626537323,0.02356167510151863,0.039601463824510574,0.020271405577659607,0.024876810610294342,0.03284047544002533,0.03858942911028862,0.014957,-0.061126,0.039627,151.206,153.292,135.602,132.157,147.168,140.167,129.377,159.327,136.298,119.279,165.598,139.611,140.29,164.204,open,0.031109,partial,0.042856,-0.017275,-0.027256,0.053646,-1.054433,0.23168,0.460125,1.17355
44,Right,1.467,Load metal blank into press die — Operator loads metal blank into hydraulic punch press die cavity.,,1,162.0,0.0,Metal Stamping Factory,Hydraulic Press Station,-0.0017765684751793742,-0.02056703343987465,-0.022914445027709007,-0.022776171565055847,-0.024252332746982574,-0.008719930425286293,-0.017616767436265945,-0.025432704016566277,-0.03216579928994179,-0.001126188668422401,-0.008901163004338741,-0.017259418964385986,-0.021901167929172516,0.004007395822554827,0.0018145015928894281,0.0005237453151494265,-0.005935742985457182,0.005949011538177729,0.007069343235343695,0.007907943800091743,0.002564649097621441,-0.05634072795510292,-0.03892863541841507,-0.018829483538866043,-0.002102419501170516,0.013903429731726646,-0.0059582446701824665,0.007845685817301273,0.025309452787041664,0.037997256964445114,-0.0014086178271099925,0.016760656610131264,0.0351622998714447,0.0512632355093956,0.004668568726629019,0.01623288355767727,0.03289957717061043,0.04814191162586212,0.0037892607506364584,0.011082183569669724,0.025660645216703415,0.03504803776741028,0.05220489203929901,0.027773166075348854,0.021182892844080925,0.008201543241739273,0.0007389812963083386,-0.012213229201734066,-0.01220514252781868,0.0074101099744439125,0.025963494554162025,-0.0037218211218714714,-0.0007370451930910349,0.015448752790689468,0.04075206071138382,0.008494674228131771,0.012376886792480946,0.028105352073907852,0.047737639397382736,0.02412310428917408,0.02884633094072342,0.038471344858407974,0.04478311538696289,-68.148,-39.77,57.239,-0.0017765684751793742,-0.02056703343987465,-0.022914445027709007,-0.022776171565055847,-0.024252332746982574,-0.008719930425286293,-0.017616767436265945,-0.025432704016566277,-0.03216579928994179,-0.001126188668422401,-0.008901163004338741,-0.017259418964385986,-0.021901167929172516,0.004007395822554827,0.0018145015928894281,0.0005237453151494265,-0.005935742985457182,0.005949011538177729,0.007069343235343695,0.007907943800091743,0.002564649097621441,-0.05634072795510292,-0.03892863541841507,-0.018829483538866043,-0.002102419501170516,0.013903429731726646,-0.0059582446701824665,0.007845685817301273,0.025309452787041664,0.037997256964445114,-0.0014086178271099925,0.016760656610131264,0.0351622998714447,0.0512632355093956,0.004668568726629019,0.01623288355767727,0.03289957717061043,0.04814191162586212,0.0037892607506364584,0.011082183569669724,0.025660645216703415,0.03504803776741028,0.05220489203929901,0.027773166075348854,0.021182892844080925,0.008201543241739273,0.0007389812963083386,-0.012213229201734066,-0.01220514252781868,0.0074101099744439125,0.025963494554162025,-0.0037218211218714714,-0.0007370451930910349,0.015448752790689468,0.04075206071138382,0.008494674228131771,0.012376886792480946,0.028105352073907852,0.047737639397382736,0.02412310428917408,0.02884633094072342,0.038471344858407974,0.04478311538696289,-0.001777,-0.056341,0.052205,137.459,159.263,124.154,133.677,172.993,121.818,149.878,161.366,124.108,154.437,165.696,122.505,175.374,151.964,open,0.035769,partial,0.004705,0.109391,-0.061946,0.1258,-0.328901,2.82776,-1.855263,3.398
44,Left,1.467,Load metal blank into press die — Operator loads metal blank into hydraulic punch press die cavity.,,1,162.0,0.0,Metal Stamping Factory,Hydraulic Press Station,0.013621359132230282,0.03248656913638115,0.03932025283575058,0.03646593540906906,0.03743728995323181,0.00868452712893486,0.012410657480359077,0.01957182213664055,0.026401929557323456,-0.0011718316236510873,-0.005771193653345108,-0.0008726334199309349,0.006389588117599487,-0.006738197058439255,-0.014501169323921204,-0.007203401066362858,3.380700945854187e-05,-0.011359835043549538,-0.01852184720337391,-0.018327532336115837,-0.01485032495111227,-0.06628794968128204,-0.04315029829740524,-0.019311096519231796,0.0011871187016367912,0.015337090007960796,-0.0013589842710644007,0.020213456824421883,0.03545228764414787,0.03552401065826416,-0.0002022947883233428,0.028613878414034843,0.041252970695495605,0.04552379623055458,0.0011882674880325794,0.021456971764564514,0.03139035031199455,0.036740947514772415,-0.006637938320636749,0.006760614924132824,0.018164101988077164,0.0243240874260664,0.04901653900742531,0.02967970445752144,0.020498763769865036,0.0042196521535515785,-0.007089467253535986,-0.011145086027681828,-0.010857980698347092,0.007177545689046383,0.026655925437808037,-0.00344669446349144,0.00010789012594614178,0.01741352118551731,0.04122717306017876,0.006524798460304737,0.011222387664020061,0.02603636495769024,0.04436701163649559,0.023504337295889854,0.027045680209994316,0.0345592238008976,0.04193202406167984,-128.21,-38.793,154.102,0.013621359132230282,0.03248656913638115,0.03932025283575058,0.03646593540906906,0.03743728995323181,0.00868452712893486,0.012410657480359077,0.01957182213664055,0.026401929557323456,-0.0011718316236510873,-0.005771193653345108,-0.0008726334199309349,0.006389588117599487,-0.006738197058439255,-0.014501169323921204,-0.007203401066362858,3.380700945854187e-05,-0.011359835043549538,-0.01852184720337391,-0.018327532336115837,-0.01485032495111227,-0.06628794968128204,-0.04315029829740524,-0.019311096519231796,0.0011871187016367912,0.015337090007960796,-0.0013589842710644007,0.020213456824421883,0.03545228764414787,0.03552401065826416,-0.0002022947883233428,0.028613878414034843,0.041252970695495605,0.04552379623055458,0.0011882674880325794,0.021456971764564514,0.03139035031199455,0.036740947514772415,-0.006637938320636749,0.006760614924132824,0.018164101988077164,0.0243240874260664,0.04901653900742531,0.02967970445752144,0.020498763769865036,0.0042196521535515785,-0.007089467253535986,-0.011145086027681828,-0.010857980698347092,0.007177545689046383,0.026655925437808037,-0.00344669446349144,0.00010789012594614178,0.01741352118551731,0.04122717306017876,0.006524798460304737,0.011222387664020061,0.02603636495769024,0.04436701163649559,0.023504337295889854,0.027045680209994316,0.0345592238008976,0.04193202406167984,0.013621,-0.066288,0.049017,155.814,152.675,134.689,131.877,141.996,135.168,128.604,154.615,136.518,120.046,163.593,144.946,146.666,154.851,open,0.040842,partial,-0.020039,-0.077423,0.140842,0.161964,-0.943422,-0.902216,2.52146,2.839331
46,Right,1.533,Load metal blank into press die — Operator loads metal blank into hydraulic punch press die cavity.,,1,162.0,0.0,Metal Stamping Factory,Hydraulic Press Station,-0.0056370957754552364,-0.022827334702014923,-0.027915075421333313,-0.027875585481524467,-0.028912071138620377,-0.006871232762932777,-0.01604623533785343,-0.02391384355723858,-0.03251146152615547,-0.0006485891644842923,-0.0032419615890830755,-0.010657467879354954,-0.017171446233987808,0.0034387344494462013,0.0022170916199684143,0.002907371148467064,-0.004377763718366623,0.0021319929510354996,0.003942848648875952,0.0032438850030303,-0.002989549655467272,-0.052908629179000854,-0.03690258786082268,-0.0168203953653574,-0.0017318270402029157,0.01415430661290884,-0.005027951672673225,0.0028597612399607897,0.022280996665358543,0.04097086563706398,-0.0013660843251273036,0.012796588242053986,0.03695973753929138,0.05902949348092079,0.005385955795645714,0.011929210275411606,0.033689916133880615,0.05230943486094475,0.004708737134933472,0.0091318991035223,0.028196431696414948,0.043184369802474976,0.04706233739852905,0.021124711260199547,0.0156355369836092,0.004341102670878172,-0.0035126181319355965,-0.013829158619046211,-0.01598340831696987,-0.002159128664061427,0.01167488843202591,-0.002926134504377842,9.169369150185958e-05,0.007846829481422901,0.026722731068730354,0.008790555410087109,0.01174263283610344,0.02124507538974285,0.03493523597717285,0.026797553524374962,0.030307400971651077,0.03796524181962013,0.040360841900110245,-77.481,-44.648,66.938,-0.0056370957754552364,-0.022827334702014923,-0.027915075421333313,-0.027875585481524467,-0.028912071138620377,-0.006871232762932777,-0.01604623533785343,-0.02391384355723858,-0.03251146152615547,-0.0006485891644842923,-0.0032419615890830755,-0.010657467879354954,-0.017171446233987808,0.0034387344494462013,0.0022170916199684143,0.002907371148467064,-0.004377763718366623,0.0021319929510354996,0.003942848648875952,0.0032438850030303,-0.002989549655467272,-0.052908629179000854,-0.03690258786082268,-0.0168203953653574,-0.0017318270402029157,0.01415430661290884,-0.005027951672673225,0.0028597612399607897,0.022280996665358543,0.04097086563706398,-0.0013660843251273036,0.012796588242053986,0.03695973753929138,0.05902949348092079,0.005385955795645714,0.011929210275411606,0.033689916133880615,0.05230943486094475,0.004708737134933472,0.0091318991035223,0.028196431696414948,0.043184369802474976,0.04706233739852905,0.021124711260199547,0.0156355369836092,0.004341102670878172,-0.0035126181319355965,-0.013829158619046211,-0.01598340831696987,-0.002159128664061427,0.01167488843202591,-0.002926134504377842,9.169369150185958e-05,0.007846829481422901,0.026722731068730354,0.008790555410087109,0.01174263283610344,0.02124507538974285,0.03493523597717285,0.026797553524374962,0.030307400971651077,0.03796524181962013,0.040360841900110245,-0.005637,-0.052909,0.047062,137.315,154.574,123.116,129.344,177.737,122.326,171.687,157.689,120.173,168.656,157.094,122.804,154.406,156.124,open,0.031028,partial,-0.057908,0.051481,-0.077138,0.109334,-0.939186,-0.868637,-0.227887,1.299436
46,Left,1.533,Load metal blank into press die — Operator loads metal blank into hydraulic punch press die cavity.,,1,162.0,0.0,Metal Stamping Factory,Hydraulic Press Station,0.022613491863012314,0.03974400460720062,0.045701026916503906,0.04464792460203171,0.04002640023827553,0.008495946414768696,0.014514971524477005,0.024414697661995888,0.0349593386054039,-0.002798913512378931,-0.0039460742846131325,0.004972846247255802,0.01711844652891159,-0.007460469380021095,-0.012927331030368805,-0.003174465149641037,0.007735780440270901,-0.0105282012373209,-0.014650567434728146,-0.01336229220032692,-0.006247599143534899,-0.06816189736127853,-0.04451698809862137,-0.018347878009080887,0.005230659153312445,0.02062954381108284,1.7136335372924805e-07,0.020132018253207207,0.0355895534157753,0.036735840141773224,7.810594979673624e-06,0.0293783787637949,0.04212331399321556,0.0484098345041275,0.0016308228950947523,0.022247323766350746,0.03357677161693573,0.03870121017098427,-0.006029021926224232,0.008149403147399426,0.02348080463707447,0.028658287599682808,0.035817086696624756,0.024147668853402138,0.02058590017259121,0.011656219139695168,0.0022839317098259926,-0.004555616993457079,-0.0045323544181883335,0.013824429363012314,0.029520362615585327,-0.001222700346261263,0.0039306036196649075,0.01939547061920166,0.04124937951564789,0.0018396592931821942,0.008851882070302963,0.02154642902314663,0.03569496423006058,0.013386168517172337,0.017984727397561073,0.025185685604810715,0.030909178778529167,-146.576,-34.545,179.927,0.022613491863012314,0.03974400460720062,0.045701026916503906,0.04464792460203171,0.04002640023827553,0.008495946414768696,0.014514971524477005,0.024414697661995888,0.0349593386054039,-0.002798913512378931,-0.0039460742846131325,0.004972846247255802,0.01711844652891159,-0.007460469380021095,-0.012927331030368805,-0.003174465149641037,0.007735780440270901,-0.0105282012373209,-0.014650567434728146,-0.01336229220032692,-0.006247599143534899,-0.06816189736127853,-0.04451698809862137,-0.018347878009080887,0.005230659153312445,0.02062954381108284,1.7136335372924805e-07,0.020132018253207207,0.0355895534157753,0.036735840141773224,7.810594979673624e-06,0.0293783787637949,0.04212331399321556,0.0484098345041275,0.0016308228950947523,0.022247323766350746,0.03357677161693573,0.03870121017098427,-0.006029021926224232,0.008149403147399426,0.02348080463707447,0.028658287599682808,0.035817086696624756,0.024147668853402138,0.02058590017259121,0.011656219139695168,0.0022839317098259926,-0.004555616993457079,-0.0045323544181883335,0.013824429363012314,0.029520362615585327,-0.001222700346261263,0.0039306036196649075,0.01939547061920166,0.04124937951564789,0.0018396592931821942,0.008851882070302963,0.02154642902314663,0.03569496423006058,0.013386168517172337,0.017984727397561073,0.025185685604810715,0.030909178778529167,0.022613,-0.068162,0.035817,153.578,160.138,139.53,132.883,146.532,139.066,132.687,158.575,136.914,127.7,160.716,143.135,158.951,136.694,open,0.032045,partial,0.134882,-0.028109,-0.197992,0.241214,2.323816,0.739706,-5.082503,5.637297
48,Right,1.600,Load metal blank into press die — Operator loads metal blank into hydraulic punch press die cavity.,,1,162.0,0.0,Metal Stamping Factory,Hydraulic Press Station,-0.006622436456382275,-0.02316046878695488,-0.023828908801078796,-0.023312579840421677,-0.020978529006242752,-0.005716395564377308,-0.014948166906833649,-0.020563781261444092,-0.02808908373117447,-0.0006626590620726347,-0.0008349089184775949,-0.00609845295548439,-0.014239875599741936,0.002657416043803096,0.0008921465487219393,0.001889802166260779,-0.0032712072134017944,0.0008086916641332209,-0.0008447504951618612,-0.0023401626385748386,-0.007843084633350372,-0.04237695038318634,-0.030224556103348732,-0.011816342361271381,0.002348564565181732,0.013644173741340637,-0.00750203151255846,0.0016348428325727582,0.023684991523623466,0.042558714747428894,-0.002421755576506257,0.00976802222430706,0.03568092733621597,0.05719267949461937,0.006085590925067663,0.010357359424233437,0.03207443654537201,0.050489392131567,0.0075166127644479275,0.008325689472258091,0.022471822798252106,0.03829529508948326,0.05582886189222336,0.02696484699845314,0.01590117998421192,0.0024651328567415476,-0.00686237495392561,-0.01664567179977894,-0.017334965988993645,-0.004802404902875423,0.00747268833220005,-0.00405743857845664,-0.003702622139826417,0.003248608438298106,0.018741417676210403,0.010442890226840973,0.012085886672139168,0.021777940914034843,0.034812718629837036,0.03222384303808212,0.03435271233320236,0.04049834609031677,0.04198859632015228,-85.978,-33.792,74.312,-0.006622436456382275,-0.02316046878695488,-0.023828908801078796,-0.023312579840421677,-0.020978529006242752,-0.005716395564377308,-0.014948166906833649,-0.020563781261444092,-0.02808908373117447,-0.0006626590620726347,-0.0008349089184775949,-0.00609845295548439,-0.014239875599741936,0.002657416043803096,0.0008921465487219393,0.001889802166260779,-0.0032712072134017944,0.0008086916641332209,-0.0008447504951618612,-0.0023401626385748386,-0.007843084633350372,-0.04237695038318634,-0.030224556103348732,-0.011816342361271381,0.002348564565181732,0.013644173741340637,-0.00750203151255846,0.0016348428325727582,0.023684991523623466,0.042558714747428894,-0.002421755576506257,0.00976802222430706,0.03568092733621597,0.05719267949461937,0.006085590925067663,0.010357359424233437,0.03207443654537201,0.050489392131567,0.0075166127644479275,0.008325689472258091,0.022471822798252106,0.03829529508948326,0.05582886189222336,0.02696484699845314,0.01590117998421192,0.0024651328567415476,-0.00686237495392561,-0.01664567179977894,-0.017334965988993645,-0.004802404902875423,0.00747268833220005,-0.00405743857845664,-0.003702622139826417,0.003248608438298106,0.018741417676210403,0.010442890226840973,0.012085886672139168,0.021777940914034843,0.034812718629837036,0.03222384303808212,0.03435271233320236,0.04049834609031677,0.04198859632015228,-0.006622,-0.042377,0.055829,136.728,167.093,110.141,136.397,173.154,121.839,163.217,159.028,110.667,156.322,161.073,81.868,128.254,157.755,open,0.033047,partial,-0.01478,0.157975,0.131498,0.206074,0.646917,1.597406,3.129543,3.572708
